[
  {
    "id": "session_001",
    "name": "O'Sullivan Pub",
    "address": "99 Castle Street, Dublin",
    "town": "Cork",
    "area": "Cork",
    "country": "Ireland",
    "latitude": "51.883081",
    "longitude": "-8.544172",
    "date": "2022-02-12"
  },
  {
    "id": "session_002",
    "name": "The Killarney Lodge",
    "address": "99 Mill Street, Dublin",
    "town": "Dublin",
    "area": "Dublin",
    "country": "Ireland",
    "latitude": "53.3615",
    "longitude": "-6.199599",
    "date": "2020-01-20"
  },
  {
    "id": "session_003",
    "name": "Connemara Pub",
    "address": "183 Abbey Street, Clare",
    "town": "Cork",
    "area": "Cork",
    "country": "Ireland",
    "latitude": "51.764672",
    "longitude": "-8.298183",
    "date": "2020-07-01"
  },
  {
    "id": "session_004",
    "name": "O'Doyle House",
    "address": "45 Church Street, Kerry",
    "town": "Belfast",
    "area": "Belfast",
    "country": "Ireland",
    "latitude": "54.637883",
    "longitude": "-5.88528",
    "date": "2023-09-03"
  },
  {
    "id": "session_005",
    "name": "The Connemara Community Centre",
    "address": "176 Church Street, Wicklow",
    "town": "Dublin",
    "area": "Dublin",
    "country": "Ireland",
    "latitude": "53.423133",
    "longitude": "-6.26461",
    "date": "2022-05-08"
  },
  {
    "id": "session_006",
    "name": "Lively Fiddler Inn",
    "address": "134 Main Street, Achill",
    "town": "Belfast",
    "area": "Belfast",
    "country": "Ireland",
    "latitude": "54.595675",
    "longitude": "-6.034825",
    "date": "2022-01-28"
  },
  {
    "id": "session_007",
    "name": "The Wild Cobbler",
    "address": "141 Church Street, Galway",
    "town": "Cork",
    "area": "Cork",
    "country": "Ireland",
    "latitude": "51.795148",
    "longitude": "-8.248858",
    "date": "2021-11-28"
  },
  {
    "id": "session_008",
    "name": "Young Dancer Music Hall",
    "address": "71 Church Street, Mayo",
    "town": "Galway",
    "area": "Galway",
    "country": "Ireland",
    "latitude": "53.337943",
    "longitude": "-8.97948",
    "date": "2020-04-25"
  },
  {
    "id": "session_009",
    "name": "O'Gallagher Community Centre",
    "address": "159 Main Street, Donegal",
    "town": "Belfast",
    "area": "Belfast",
    "country": "Ireland",
    "latitude": "54.669015",
    "longitude": "-5.68504",
    "date": "2024-05-18"
  },
  {
    "id": "session_010",
    "name": "O'Murphy Centre",
    "address": "128 Market Street, Mayo",
    "town": "Belfast",
    "area": "Belfast",
    "country": "Ireland",
    "latitude": "54.6166",
    "longitude": "-5.990258",
    "date": "2021-07-24"
  },
  {
    "id": "session_011",
    "name": "O'McGrath Club",
    "address": "183 Church Street, Limerick",
    "town": "Dublin",
    "area": "Dublin",
    "country": "Ireland",
    "latitude": "53.217022",
    "longitude": "-6.117462",
    "date": "2022-12-13"
  },
  {
    "id": "session_012",
    "name": "O'Reilly Community Centre",
    "address": "175 Castle Street, Achill",
    "town": "Belfast",
    "area": "Belfast",
    "country": "Ireland",
    "latitude": "54.602944",
    "longitude": "-5.922874",
    "date": "2020-09-29"
  },
  {
    "id": "session_013",
    "name": "Lonesome Reel Community Centre",
    "address": "195 Abbey Street, Galway",
    "town": "Cork",
    "area": "Cork",
    "country": "Ireland",
    "latitude": "51.986101",
    "longitude": "-8.356501",
    "date": "2024-02-18"
  },
  {
    "id": "session_014",
    "name": "Lonesome Reel Pub",
    "address": "149 Main Street, Mayo",
    "town": "Belfast",
    "area": "Belfast",
    "country": "Ireland",
    "latitude": "54.525319",
    "longitude": "-5.971274",
    "date": "2024-03-08"
  },
  {
    "id": "session_015",
    "name": "Mayo Community Centre",
    "address": "105 Bridge Street, Clare",
    "town": "Cork",
    "area": "Cork",
    "country": "Ireland",
    "latitude": "51.850767",
    "longitude": "-8.226313",
    "date": "2022-12-26"
  },
  {
    "id": "session_016",
    "name": "Cork Lodge",
    "address": "140 Main Street, Galway",
    "town": "Dublin",
    "area": "Dublin",
    "country": "Ireland",
    "latitude": "53.251572",
    "longitude": "-6.183658",
    "date": "2023-02-11"
  },
  {
    "id": "session_017",
    "name": "The Achill House",
    "address": "64 Church Street, Donegal",
    "town": "Dublin",
    "area": "Dublin",
    "country": "Ireland",
    "latitude": "53.349242",
    "longitude": "-6.31722",
    "date": "2024-12-16"
  },
  {
    "id": "session_018",
    "name": "O'Doyle Centre",
    "address": "182 Main Street, Waterford",
    "town": "Galway",
    "area": "Galway",
    "country": "Ireland",
    "latitude": "53.142913",
    "longitude": "-9.121799",
    "date": "2023-03-12"
  },
  {
    "id": "session_019",
    "name": "Bold Reel Lodge",
    "address": "28 Church Street, Connemara",
    "town": "Cork",
    "area": "Cork",
    "country": "Ireland",
    "latitude": "51.82605",
    "longitude": "-8.476869",
    "date": "2023-10-15"
  },
  {
    "id": "session_020",
    "name": "The Old Blackbird",
    "address": "93 Bridge Street, Waterford",
    "town": "Belfast",
    "area": "Belfast",
    "country": "Ireland",
    "latitude": "54.448083",
    "longitude": "-6.023663",
    "date": "2024-01-12"
  },
  {
    "id": "session_021",
    "name": "O'Walsh House",
    "address": "187 Church Street, Donegal",
    "town": "Dublin",
    "area": "Dublin",
    "country": "Ireland",
    "latitude": "53.276703",
    "longitude": "-6.434057",
    "date": "2023-06-11"
  },
  {
    "id": "session_022",
    "name": "O'Byrne Hotel",
    "address": "145 Bridge Street, Achill",
    "town": "Dublin",
    "area": "Dublin",
    "country": "Ireland",
    "latitude": "53.346798",
    "longitude": "-6.259753",
    "date": "2024-05-30"
  },
  {
    "id": "session_023",
    "name": "The Donegal Bar",
    "address": "134 Main Street, Killarney",
    "town": "Cork",
    "area": "Cork",
    "country": "Ireland",
    "latitude": "51.862184",
    "longitude": "-8.482127",
    "date": "2024-06-25"
  },
  {
    "id": "session_024",
    "name": "The Foggy Dancer",
    "address": "89 Church Street, Limerick",
    "town": "Belfast",
    "area": "Belfast",
    "country": "Ireland",
    "latitude": "54.596739",
    "longitude": "-6.003917",
    "date": "2022-01-22"
  },
  {
    "id": "session_025",
    "name": "Foggy Cobbler Community Centre",
    "address": "199 Main Street, Connemara",
    "town": "Belfast",
    "area": "Belfast",
    "country": "Ireland",
    "latitude": "54.703284",
    "longitude": "-5.833381",
    "date": "2021-06-16"
  }
]